header: 
  seq: 249
  stamp: 
    secs: 1671057903
    nsecs:  26021719
  frame_id: "odom"
child_frame_id: "camera_link"
pose: 
  pose: 
    position: 
      x: -0.05278957635164261
      y: 0.00917662400752306
      z: -0.025170419365167618
    orientation: 
      x: -0.6651400145729673
      y: 0.7422734330439212
      z: -0.01366368164960054
      w: 0.08020109360128895
  covariance: [0.0004516751174465754, 0.0, 0.0, 0.0, 0.0, 0.0, 0.0, 0.0004516751174465754, 0.0, 0.0, 0.0, 0.0, 0.0, 0.0, 0.0004516751174465754, 0.0, 0.0, 0.0, 0.0, 0.0, 0.0, 0.0004553588437917643, 0.0, 0.0, 0.0, 0.0, 0.0, 0.0, 0.0004553588437917643, 0.0, 0.0, 0.0, 0.0, 0.0, 0.0, 0.0004553588437917643]
twist: 
  twist: 
    linear: 
      x: -0.012074075639247894
      y: 0.009106379002332687
      z: -0.005729353986680508
    angular: 
      x: 0.002149224281311035
      y: -0.04518362879753113
      z: 0.009391781874001026
  covariance: [0.0002258375587232877, 0.0, 0.0, 0.0, 0.0, 0.0, 0.0, 0.0002258375587232877, 0.0, 0.0, 0.0, 0.0, 0.0, 0.0, 0.0002258375587232877, 0.0, 0.0, 0.0, 0.0, 0.0, 0.0, 0.00022767942189588216, 0.0, 0.0, 0.0, 0.0, 0.0, 0.0, 0.00022767942189588216, 0.0, 0.0, 0.0, 0.0, 0.0, 0.0, 0.00022767942189588216]
---
header: 
  seq: 250
  stamp: 
    secs: 1671057903
    nsecs: 159422159
  frame_id: "odom"
child_frame_id: "camera_link"
pose: 
  pose: 
    position: 
      x: -0.06085137650370598
      y: 0.0006552180275321007
      z: -0.02359759248793125
    orientation: 
      x: -0.6636004583079188
      y: 0.743116310460028
      z: -0.015571000738383262
      w: 0.08467658943179442
  covariance: [0.0007423293044068851, 0.0, 0.0, 0.0, 0.0, 0.0, 0.0, 0.0007423293044068851, 0.0, 0.0, 0.0, 0.0, 0.0, 0.0, 0.0007423293044068851, 0.0, 0.0, 0.0, 0.0, 0.0, 0.0, 0.00037179893299005935, 0.0, 0.0, 0.0, 0.0, 0.0, 0.0, 0.00037179893299005935, 0.0, 0.0, 0.0, 0.0, 0.0, 0.0, 0.00037179893299005935]
twist: 
  twist: 
    linear: 
      x: 0.06820916384458542
      y: 0.05071049928665161
      z: -0.025447390973567963
    angular: 
      x: 0.06748717278242111
      y: -0.029565254226326942
      z: 0.024028252810239792
  covariance: [0.00037116465220344256, 0.0, 0.0, 0.0, 0.0, 0.0, 0.0, 0.00037116465220344256, 0.0, 0.0, 0.0, 0.0, 0.0, 0.0, 0.00037116465220344256, 0.0, 0.0, 0.0, 0.0, 0.0, 0.0, 0.00018589946649502967, 0.0, 0.0, 0.0, 0.0, 0.0, 0.0, 0.00018589946649502967, 0.0, 0.0, 0.0, 0.0, 0.0, 0.0, 0.00018589946649502967]
---
header: 
  seq: 251
  stamp: 
    secs: 1671057903
    nsecs: 259471655
  frame_id: "odom"
child_frame_id: "camera_link"
pose: 
  pose: 
    position: 
      x: -0.060534339398145676
      y: 0.001643904484808445
      z: -0.030937813222408295
    orientation: 
      x: -0.6622490471539165
      y: 0.7444473504085317
      z: -0.016698502277131027
      w: 0.08333967863597208
  covariance: [0.0005414626333024354, 0.0, 0.0, 0.0, 0.0, 0.0, 0.0, 0.0005414626333024354, 0.0, 0.0, 0.0, 0.0, 0.0, 0.0, 0.0005414626333024354, 0.0, 0.0, 0.0, 0.0, 0.0, 0.0, 0.000503418120124843, 0.0, 0.0, 0.0, 0.0, 0.0, 0.0, 0.000503418120124843, 0.0, 0.0, 0.0, 0.0, 0.0, 0.0, 0.000503418120124843]
twist: 
  twist: 
    linear: 
      x: -0.002387930639088154
      y: 0.007999826222658157
      z: 0.0736243948340416
    angular: 
      x: 0.00095385528402403
      y: 0.037488531321287155
      z: 0.03540809825062752
  covariance: [0.0002707313166512177, 0.0, 0.0, 0.0, 0.0, 0.0, 0.0, 0.0002707313166512177, 0.0, 0.0, 0.0, 0.0, 0.0, 0.0, 0.0002707313166512177, 0.0, 0.0, 0.0, 0.0, 0.0, 0.0, 0.0002517090600624215, 0.0, 0.0, 0.0, 0.0, 0.0, 0.0, 0.0002517090600624215, 0.0, 0.0, 0.0, 0.0, 0.0, 0.0, 0.0002517090600624215]
---
header: 
  seq: 252
  stamp: 
    secs: 1671057903
    nsecs: 326171160
  frame_id: "odom"
child_frame_id: "camera_link"
pose: 
  pose: 
    position: 
      x: -0.06291429698467255
      y: 3.570748958736658e-05
      z: -0.028117606416344643
    orientation: 
      x: -0.662019238996312
      y: 0.744626569870845
      z: -0.016483376620487458
      w: 0.08360679958179575
  covariance: [0.0004036423259892036, 0.0, 0.0, 0.0, 0.0, 0.0, 0.0, 0.0004036423259892036, 0.0, 0.0, 0.0, 0.0, 0.0, 0.0, 0.0004036423259892036, 0.0, 0.0, 0.0, 0.0, 0.0, 0.0, 0.0005472732359077782, 0.0, 0.0, 0.0, 0.0, 0.0, 0.0, 0.0005472732359077782, 0.0, 0.0, 0.0, 0.0, 0.0, 0.0, 0.0005472732359077782]
twist: 
  twist: 
    linear: 
      x: 0.023417631164193153
      y: 0.026416469365358353
      z: -0.048950064927339554
    angular: 
      x: 0.000983771518804133
      y: -0.009672004729509354
      z: 0.009359769523143768
  covariance: [0.0002018211629946018, 0.0, 0.0, 0.0, 0.0, 0.0, 0.0, 0.0002018211629946018, 0.0, 0.0, 0.0, 0.0, 0.0, 0.0, 0.0002018211629946018, 0.0, 0.0, 0.0, 0.0, 0.0, 0.0, 0.0002736366179538891, 0.0, 0.0, 0.0, 0.0, 0.0, 0.0, 0.0002736366179538891, 0.0, 0.0, 0.0, 0.0, 0.0, 0.0, 0.0002736366179538891]
---
header: 
  seq: 253
  stamp: 
    secs: 1671057903
    nsecs: 426219940
  frame_id: "odom"
child_frame_id: "camera_link"
pose: 
  pose: 
    position: 
      x: -0.06980368494987488
      y: -0.0075616901740431786
      z: -0.031506866216659546
    orientation: 
      x: -0.6626961901392616
      y: 0.7440523351890408
      z: -0.017556923791038168
      w: 0.08313625263168024
  covariance: [0.000517121625118889, 0.0, 0.0, 0.0, 0.0, 0.0, 0.0, 0.000517121625118889, 0.0, 0.0, 0.0, 0.0, 0.0, 0.0, 0.000517121625118889, 0.0, 0.0, 0.0, 0.0, 0.0, 0.0, 0.0004553588437917643, 0.0, 0.0, 0.0, 0.0, 0.0, 0.0, 0.0004553588437917643, 0.0, 0.0, 0.0, 0.0, 0.0, 0.0, 0.0004553588437917643]
twist: 
  twist: 
    linear: 
      x: 0.08609409630298615
      y: 0.06294815987348557
      z: 0.01676529459655285
    angular: 
      x: 0.008790991269052029
      y: 0.02003738470375538
      z: -0.019615231081843376
  covariance: [0.0002585608125594445, 0.0, 0.0, 0.0, 0.0, 0.0, 0.0, 0.0002585608125594445, 0.0, 0.0, 0.0, 0.0, 0.0, 0.0, 0.0002585608125594445, 0.0, 0.0, 0.0, 0.0, 0.0, 0.0, 0.00022767942189588216, 0.0, 0.0, 0.0, 0.0, 0.0, 0.0, 0.00022767942189588216, 0.0, 0.0, 0.0, 0.0, 0.0, 0.0, 0.00022767942189588216]
---
header: 
  seq: 254
  stamp: 
    secs: 1671057903
    nsecs: 526268005
  frame_id: "odom"
child_frame_id: "camera_link"
pose: 
  pose: 
    position: 
      x: -0.07100182771682739
      y: -0.012040190398693085
      z: -0.032591719180345535
    orientation: 
      x: -0.6638554555995617
      y: 0.7430361624452301
      z: -0.018625547775618208
      w: 0.08274227661493393
  covariance: [0.00043816737022949387, 0.0, 0.0, 0.0, 0.0, 0.0, 0.0, 0.00043816737022949387, 0.0, 0.0, 0.0, 0.0, 0.0, 0.0, 0.00043816737022949387, 0.0, 0.0, 0.0, 0.0, 0.0, 0.0, 0.0005878657220746391, 0.0, 0.0, 0.0, 0.0, 0.0, 0.0, 0.0005878657220746391, 0.0, 0.0, 0.0, 0.0, 0.0, 0.0, 0.0005878657220746391]
twist: 
  twist: 
    linear: 
      x: 0.04665534943342209
      y: 0.007834394462406635
      z: 0.005163601599633694
    angular: 
      x: 0.009076227433979511
      y: 0.0179358571767807
      z: -0.032609183341264725
  covariance: [0.00021908368511474693, 0.0, 0.0, 0.0, 0.0, 0.0, 0.0, 0.00021908368511474693, 0.0, 0.0, 0.0, 0.0, 0.0, 0.0, 0.00021908368511474693, 0.0, 0.0, 0.0, 0.0, 0.0, 0.0, 0.0002939328610373196, 0.0, 0.0, 0.0, 0.0, 0.0, 0.0, 0.0002939328610373196, 0.0, 0.0, 0.0, 0.0, 0.0, 0.0, 0.0002939328610373196]
---
header: 
  seq: 255
  stamp: 
    secs: 1671057903
    nsecs: 626315832
  frame_id: "odom"
child_frame_id: "camera_link"
pose: 
  pose: 
    position: 
      x: -0.07482388615608215
      y: -0.017131183296442032
      z: -0.03423614054918289
    orientation: 
      x: -0.6653826826529899
      y: 0.7415342099139772
      z: -0.019191302435421973
      w: 0.08381285738832799
  covariance: [0.0006253945606481285, 0.0, 0.0, 0.0, 0.0, 0.0, 0.0, 0.0006253945606481285, 0.0, 0.0, 0.0, 0.0, 0.0, 0.0, 0.0006253945606481285, 0.0, 0.0, 0.0, 0.0, 0.0, 0.0, 0.0005258030858938584, 0.0, 0.0, 0.0, 0.0, 0.0, 0.0, 0.0005258030858938584, 0.0, 0.0, 0.0, 0.0, 0.0, 0.0, 0.0005258030858938584]
twist: 
  twist: 
    linear: 
      x: 0.05597933381795883
      y: 0.033831510692834854
      z: 0.006376044359058142
    angular: 
      x: 0.020668918266892433
      y: -0.01140225026756525
      z: -0.043165042996406555
  covariance: [0.00031269728032406427, 0.0, 0.0, 0.0, 0.0, 0.0, 0.0, 0.00031269728032406427, 0.0, 0.0, 0.0, 0.0, 0.0, 0.0, 0.00031269728032406427, 0.0, 0.0, 0.0, 0.0, 0.0, 0.0, 0.0002629015429469292, 0.0, 0.0, 0.0, 0.0, 0.0, 0.0, 0.0002629015429469292, 0.0, 0.0, 0.0, 0.0, 0.0, 0.0, 0.0002629015429469292]
---
header: 
  seq: 256
  stamp: 
    secs: 1671057903
    nsecs: 726362944
  frame_id: "odom"
child_frame_id: "camera_link"
pose: 
  pose: 
    position: 
      x: -0.07824188470840454
      y: -0.020805723965168
      z: -0.030517958104610443
    orientation: 
      x: -0.6666193866026098
      y: 0.7403823568158412
      z: -0.01849201683248018
      w: 0.08432439999696405
  covariance: [0.0004664492767397315, 0.0, 0.0, 0.0, 0.0, 0.0, 0.0, 0.0004664492767397315, 0.0, 0.0, 0.0, 0.0, 0.0, 0.0, 0.0004664492767397315, 0.0, 0.0, 0.0, 0.0, 0.0, 0.0, 0.00040158873734646484, 0.0, 0.0, 0.0, 0.0, 0.0, 0.0, 0.00040158873734646484, 0.0, 0.0, 0.0, 0.0, 0.0, 0.0, 0.00040158873734646484]
twist: 
  twist: 
    linear: 
      x: 0.03612422198057175
      y: 0.02422093227505684
      z: -0.044785015285015106
    angular: 
      x: -0.005160807631909847
      y: -0.01929721049964428
      z: -0.03228139877319336
  covariance: [0.00023322463836986576, 0.0, 0.0, 0.0, 0.0, 0.0, 0.0, 0.00023322463836986576, 0.0, 0.0, 0.0, 0.0, 0.0, 0.0, 0.00023322463836986576, 0.0, 0.0, 0.0, 0.0, 0.0, 0.0, 0.00020079436867323242, 0.0, 0.0, 0.0, 0.0, 0.0, 0.0, 0.00020079436867323242, 0.0, 0.0, 0.0, 0.0, 0.0, 0.0, 0.00020079436867323242]
---
header: 
  seq: 257
  stamp: 
    secs: 1671057903
    nsecs: 826409340
  frame_id: "odom"
child_frame_id: "camera_link"
pose: 
  pose: 
    position: 
      x: -0.0899701863527298
      y: -0.030116617679595947
      z: -0.033955954015254974
    orientation: 
      x: -0.6688788096069398
      y: 0.7384611235470386
      z: -0.01811925605238762
      w: 0.0833546617086078
  covariance: [0.0006620103747141549, 0.0, 0.0, 0.0, 0.0, 0.0, 0.0, 0.0006620103747141549, 0.0, 0.0, 0.0, 0.0, 0.0, 0.0, 0.0006620103747141549, 0.0, 0.0, 0.0, 0.0, 0.0, 0.0, 0.0004553588437917643, 0.0, 0.0, 0.0, 0.0, 0.0, 0.0, 0.0004553588437917643, 0.0, 0.0, 0.0, 0.0, 0.0, 0.0, 0.0004553588437917643]
twist: 
  twist: 
    linear: 
      x: 0.10697274655103683
      y: 0.1098671406507492
      z: 0.008409424684941769
    angular: 
      x: -0.021554134786128998
      y: 0.005248038098216057
      z: -0.058780647814273834
  covariance: [0.00033100518735707744, 0.0, 0.0, 0.0, 0.0, 0.0, 0.0, 0.00033100518735707744, 0.0, 0.0, 0.0, 0.0, 0.0, 0.0, 0.00033100518735707744, 0.0, 0.0, 0.0, 0.0, 0.0, 0.0, 0.00022767942189588216, 0.0, 0.0, 0.0, 0.0, 0.0, 0.0, 0.00022767942189588216, 0.0, 0.0, 0.0, 0.0, 0.0, 0.0, 0.00022767942189588216]
---
header: 
  seq: 258
  stamp: 
    secs: 1671057903
    nsecs: 926455975
  frame_id: "odom"
child_frame_id: "camera_link"
pose: 
  pose: 
    position: 
      x: -0.09397231042385101
      y: -0.033714327961206436
      z: -0.03422021493315697
    orientation: 
      x: -0.6687420576464655
      y: 0.7382113747698099
      z: -0.0196069221596078
      w: 0.08627627193305136
  covariance: [0.00042097021585330377, 0.0, 0.0, 0.0, 0.0, 0.0, 0.0, 0.00042097021585330377, 0.0, 0.0, 0.0, 0.0, 0.0, 0.0, 0.00042097021585330377, 0.0, 0.0, 0.0, 0.0, 0.0, 0.0, 0.0004799903411627748, 0.0, 0.0, 0.0, 0.0, 0.0, 0.0, 0.0004799903411627748, 0.0, 0.0, 0.0, 0.0, 0.0, 0.0, 0.0004799903411627748]
twist: 
  twist: 
    linear: 
      x: 0.039546821266412735
      y: 0.0360027439892292
      z: -0.006338903680443764
    angular: 
      x: 0.06134912744164467
      y: -0.023595785722136497
      z: -0.002812555292621255
  covariance: [0.00021048510792665188, 0.0, 0.0, 0.0, 0.0, 0.0, 0.0, 0.00021048510792665188, 0.0, 0.0, 0.0, 0.0, 0.0, 0.0, 0.00021048510792665188, 0.0, 0.0, 0.0, 0.0, 0.0, 0.0, 0.0002399951705813874, 0.0, 0.0, 0.0, 0.0, 0.0, 0.0, 0.0002399951705813874, 0.0, 0.0, 0.0, 0.0, 0.0, 0.0, 0.0002399951705813874]
---
header: 
  seq: 259
  stamp: 
    secs: 1671057904
    nsecs:  26504040
  frame_id: "odom"
child_frame_id: "camera_link"
pose: 
  pose: 
    position: 
      x: -0.09892246872186661
      y: -0.03731579706072807
      z: -0.03611021116375923
    orientation: 
      x: -0.668988729565458
      y: 0.7377962333083985
      z: -0.01999028866267378
      w: 0.08781335997168627
  covariance: [0.0005416601823270321, 0.0, 0.0, 0.0, 0.0, 0.0, 0.0, 0.0005416601823270321, 0.0, 0.0, 0.0, 0.0, 0.0, 0.0, 0.0005416601823270321, 0.0, 0.0, 0.0, 0.0, 0.0, 0.0, 0.000503418120124843, 0.0, 0.0, 0.0, 0.0, 0.0, 0.0, 0.000503418120124843, 0.0, 0.0, 0.0, 0.0, 0.0, 0.0, 0.000503418120124843]
twist: 
  twist: 
    linear: 
      x: 0.04206125810742378
      y: 0.04763853922486305
      z: 0.007883339188992977
    angular: 
      x: 0.02595154568552971
      y: -0.018358681350946426
      z: -0.009273090399801731
  covariance: [0.00027083009116351603, 0.0, 0.0, 0.0, 0.0, 0.0, 0.0, 0.00027083009116351603, 0.0, 0.0, 0.0, 0.0, 0.0, 0.0, 0.00027083009116351603, 0.0, 0.0, 0.0, 0.0, 0.0, 0.0, 0.0002517090600624215, 0.0, 0.0, 0.0, 0.0, 0.0, 0.0, 0.0002517090600624215, 0.0, 0.0, 0.0, 0.0, 0.0, 0.0, 0.0002517090600624215]
---
header: 
  seq: 260
  stamp: 
    secs: 1671057904
    nsecs: 159900904
  frame_id: "odom"
child_frame_id: "camera_link"
pose: 
  pose: 
    position: 
      x: -0.10771842300891876
      y: -0.04094744473695755
      z: -0.034352246671915054
    orientation: 
      x: -0.6699215875301495
      y: 0.7370836608731312
      z: -0.01763689204420965
      w: 0.08718763372157695
  covariance: [0.0005602522068237887, 0.0, 0.0, 0.0, 0.0, 0.0, 0.0, 0.0005602522068237887, 0.0, 0.0, 0.0, 0.0, 0.0, 0.0, 0.0005602522068237887, 0.0, 0.0, 0.0, 0.0, 0.0, 0.0, 0.0005878657220746391, 0.0, 0.0, 0.0, 0.0, 0.0, 0.0, 0.0005878657220746391, 0.0, 0.0, 0.0, 0.0, 0.0, 0.0, 0.0005878657220746391]
twist: 
  twist: 
    linear: 
      x: 0.03151566535234451
      y: 0.06008833274245262
      z: -0.025667965412139893
    angular: 
      x: -0.03330591693520546
      y: -0.017933310940861702
      z: -0.014515703544020653
  covariance: [0.00028012610341189434, 0.0, 0.0, 0.0, 0.0, 0.0, 0.0, 0.00028012610341189434, 0.0, 0.0, 0.0, 0.0, 0.0, 0.0, 0.00028012610341189434, 0.0, 0.0, 0.0, 0.0, 0.0, 0.0, 0.0002939328610373196, 0.0, 0.0, 0.0, 0.0, 0.0, 0.0, 0.0002939328610373196, 0.0, 0.0, 0.0, 0.0, 0.0, 0.0, 0.0002939328610373196]
---
header: 
  seq: 261
  stamp: 
    secs: 1671057904
    nsecs: 259947538
  frame_id: "odom"
child_frame_id: "camera_link"
pose: 
  pose: 
    position: 
      x: -0.11525584012269974
      y: -0.04359085485339165
      z: -0.03563201054930687
    orientation: 
      x: -0.6715251241198908
      y: 0.7356663789578406
      z: -0.018190948466889637
      w: 0.0867068390653181
  covariance: [0.0008116253567766399, 0.0, 0.0, 0.0, 0.0, 0.0, 0.0, 0.0008116253567766399, 0.0, 0.0, 0.0, 0.0, 0.0, 0.0, 0.0008116253567766399, 0.0, 0.0, 0.0, 0.0, 0.0, 0.0, 0.0005472732359077782, 0.0, 0.0, 0.0, 0.0, 0.0, 0.0, 0.0005472732359077782, 0.0, 0.0, 0.0, 0.0, 0.0, 0.0, 0.0005472732359077782]
twist: 
  twist: 
    linear: 
      x: 0.0340866781771183
      y: 0.0733088031411171
      z: -0.0012739115627482533
    angular: 
      x: -0.0005953222862444818
      y: 0.011467453092336655
      z: -0.04374530538916588
  covariance: [0.00040581267838831994, 0.0, 0.0, 0.0, 0.0, 0.0, 0.0, 0.00040581267838831994, 0.0, 0.0, 0.0, 0.0, 0.0, 0.0, 0.00040581267838831994, 0.0, 0.0, 0.0, 0.0, 0.0, 0.0, 0.0002736366179538891, 0.0, 0.0, 0.0, 0.0, 0.0, 0.0, 0.0002736366179538891, 0.0, 0.0, 0.0, 0.0, 0.0, 0.0, 0.0002736366179538891]
---
header: 
  seq: 262
  stamp: 
    secs: 1671057904
    nsecs: 359993696
  frame_id: "odom"
child_frame_id: "camera_link"
pose: 
  pose: 
    position: 
      x: -0.11672919243574142
      y: -0.0421542190015316
      z: -0.03158531337976456
    orientation: 
      x: -0.6719991773617934
      y: 0.7353211882328842
      z: -0.019677619195192644
      w: 0.08563087681240719
  covariance: [0.0005581477979267948, 0.0, 0.0, 0.0, 0.0, 0.0, 0.0, 0.0005581477979267948, 0.0, 0.0, 0.0, 0.0, 0.0, 0.0, 0.0005581477979267948, 0.0, 0.0, 0.0, 0.0, 0.0, 0.0, 0.0004553588437917643, 0.0, 0.0, 0.0, 0.0, 0.0, 0.0, 0.0004553588437917643, 0.0, 0.0, 0.0, 0.0, 0.0, 0.0, 0.0004553588437917643]
twist: 
  twist: 
    linear: 
      x: -0.017181824892759323
      y: 0.010110539384186268
      z: -0.040764015167951584
    angular: 
      x: 0.006698024459183216
      y: 0.035015709698200226
      z: -0.014560428448021412
  covariance: [0.0002790738989633974, 0.0, 0.0, 0.0, 0.0, 0.0, 0.0, 0.0002790738989633974, 0.0, 0.0, 0.0, 0.0, 0.0, 0.0, 0.0002790738989633974, 0.0, 0.0, 0.0, 0.0, 0.0, 0.0, 0.00022767942189588216, 0.0, 0.0, 0.0, 0.0, 0.0, 0.0, 0.00022767942189588216, 0.0, 0.0, 0.0, 0.0, 0.0, 0.0, 0.00022767942189588216]
---
header: 
  seq: 263
  stamp: 
    secs: 1671057904
    nsecs: 426690817
  frame_id: "odom"
child_frame_id: "camera_link"
pose: 
  pose: 
    position: 
      x: -0.12554416060447693
      y: -0.04932476952672005
      z: -0.03243040293455124
    orientation: 
      x: -0.6732004714187002
      y: 0.7344850502743236
      z: -0.020102217084741428
      w: 0.08323903575511774
  covariance: [0.0008110709400451742, 0.0, 0.0, 0.0, 0.0, 0.0, 0.0, 0.0008110709400451742, 0.0, 0.0, 0.0, 0.0, 0.0, 0.0, 0.0008110709400451742, 0.0, 0.0, 0.0, 0.0, 0.0, 0.0, 0.0004799903411627748, 0.0, 0.0, 0.0, 0.0, 0.0, 0.0, 0.0004799903411627748, 0.0, 0.0, 0.0, 0.0, 0.0, 0.0, 0.0004799903411627748]
twist: 
  twist: 
    linear: 
      x: 0.11873073875904083
      y: 0.1216660812497139
      z: -0.016925932839512825
    angular: 
      x: -0.04151592031121254
      y: 0.05837578698992729
      z: -0.045918889343738556
  covariance: [0.0004055354700225871, 0.0, 0.0, 0.0, 0.0, 0.0, 0.0, 0.0004055354700225871, 0.0, 0.0, 0.0, 0.0, 0.0, 0.0, 0.0004055354700225871, 0.0, 0.0, 0.0, 0.0, 0.0, 0.0, 0.0002399951705813874, 0.0, 0.0, 0.0, 0.0, 0.0, 0.0, 0.0002399951705813874, 0.0, 0.0, 0.0, 0.0, 0.0, 0.0, 0.0002399951705813874]
---
header: 
  seq: 264
  stamp: 
    secs: 1671057904
    nsecs: 526735783
  frame_id: "odom"
child_frame_id: "camera_link"
pose: 
  pose: 
    position: 
      x: -0.12796999514102936
      y: -0.05549781024456024
      z: -0.029802720993757248
    orientation: 
      x: -0.6739050603826573
      y: 0.7340484656767958
      z: -0.021197021013753158
      w: 0.08108949332886221
  covariance: [0.000517217431277968, 0.0, 0.0, 0.0, 0.0, 0.0, 0.0, 0.000517217431277968, 0.0, 0.0, 0.0, 0.0, 0.0, 0.0, 0.000517217431277968, 0.0, 0.0, 0.0, 0.0, 0.0, 0.0, 0.0004799903411627748, 0.0, 0.0, 0.0, 0.0, 0.0, 0.0, 0.0004799903411627748, 0.0, 0.0, 0.0, 0.0, 0.0, 0.0, 0.0004799903411627748]
twist: 
  twist: 
    linear: 
      x: 0.06065785139799118
      y: 0.01445254497230053
      z: -0.0345940962433815
    angular: 
      x: -0.013893192633986473
      y: 0.04527301341295242
      z: -0.0189386997371912
  covariance: [0.000258608715638984, 0.0, 0.0, 0.0, 0.0, 0.0, 0.0, 0.000258608715638984, 0.0, 0.0, 0.0, 0.0, 0.0, 0.0, 0.000258608715638984, 0.0, 0.0, 0.0, 0.0, 0.0, 0.0, 0.0002399951705813874, 0.0, 0.0, 0.0, 0.0, 0.0, 0.0, 0.0002399951705813874, 0.0, 0.0, 0.0, 0.0, 0.0, 0.0, 0.0002399951705813874]
---
header: 
  seq: 265
  stamp: 
    secs: 1671057904
    nsecs: 593432188
  frame_id: "odom"
child_frame_id: "camera_link"
pose: 
  pose: 
    position: 
      x: -0.1340453177690506
      y: -0.06551271677017212
      z: -0.030033553019165993
    orientation: 
      x: -0.6753379928669428
      y: 0.7327217784431174
      z: -0.02045146279521666
      w: 0.08135802637195644
  covariance: [0.0005782251249602997, 0.0, 0.0, 0.0, 0.0, 0.0, 0.0, 0.0005782251249602997, 0.0, 0.0, 0.0, 0.0, 0.0, 0.0, 0.0005782251249602997, 0.0, 0.0, 0.0, 0.0, 0.0, 0.0, 0.000503418120124843, 0.0, 0.0, 0.0, 0.0, 0.0, 0.0, 0.000503418120124843, 0.0, 0.0, 0.0, 0.0, 0.0, 0.0, 0.000503418120124843]
twist: 
  twist: 
    linear: 
      x: 0.15654323995113373
      y: 0.07665753364562988
      z: -0.021772291511297226
    angular: 
      x: -0.013578282669186592
      y: -0.02513962797820568
      z: -0.056355033069849014
  covariance: [0.00028911256248014987, 0.0, 0.0, 0.0, 0.0, 0.0, 0.0, 0.00028911256248014987, 0.0, 0.0, 0.0, 0.0, 0.0, 0.0, 0.00028911256248014987, 0.0, 0.0, 0.0, 0.0, 0.0, 0.0, 0.0002517090600624215, 0.0, 0.0, 0.0, 0.0, 0.0, 0.0, 0.0002517090600624215, 0.0, 0.0, 0.0, 0.0, 0.0, 0.0, 0.0002517090600624215]
---
header: 
  seq: 266
  stamp: 
    secs: 1671057904
    nsecs: 693476200
  frame_id: "odom"
child_frame_id: "camera_link"
pose: 
  pose: 
    position: 
      x: -0.1295275241136551
      y: -0.07014106959104538
      z: -0.03010891005396843
    orientation: 
      x: -0.6735532400188037
      y: 0.7344837264096422
      z: -0.021205056404263997
      w: 0.0800626884539232
  covariance: [0.0005975089292926715, 0.0, 0.0, 0.0, 0.0, 0.0, 0.0, 0.0005975089292926715, 0.0, 0.0, 0.0, 0.0, 0.0, 0.0, 0.0005975089292926715, 0.0, 0.0, 0.0, 0.0, 0.0, 0.0, 0.0004799903411627748, 0.0, 0.0, 0.0, 0.0, 0.0, 0.0, 0.0004799903411627748, 0.0, 0.0, 0.0, 0.0, 0.0, 0.0, 0.0004799903411627748]
twist: 
  twist: 
    linear: 
      x: 0.04263945668935776
      y: -0.0484609417617321
      z: 0.003676807973533869
    angular: 
      x: -0.004188050050288439
      y: 0.032753750681877136
      z: 0.048168156296014786
  covariance: [0.00029875446464633576, 0.0, 0.0, 0.0, 0.0, 0.0, 0.0, 0.00029875446464633576, 0.0, 0.0, 0.0, 0.0, 0.0, 0.0, 0.00029875446464633576, 0.0, 0.0, 0.0, 0.0, 0.0, 0.0, 0.0002399951705813874, 0.0, 0.0, 0.0, 0.0, 0.0, 0.0, 0.0002399951705813874, 0.0, 0.0, 0.0, 0.0, 0.0, 0.0, 0.0002399951705813874]
---
header: 
  seq: 267
  stamp: 
    secs: 1671057904
    nsecs: 760171890
  frame_id: "odom"
child_frame_id: "camera_link"
pose: 
  pose: 
    position: 
      x: -0.13772207498550415
      y: -0.08655895292758942
      z: -0.03184303268790245
    orientation: 
      x: -0.6739331228983624
      y: 0.7342258583327536
      z: -0.021765206889895024
      w: 0.07907471520677346
  covariance: [0.0006724776582000778, 0.0, 0.0, 0.0, 0.0, 0.0, 0.0, 0.0006724776582000778, 0.0, 0.0, 0.0, 0.0, 0.0, 0.0, 0.0006724776582000778, 0.0, 0.0, 0.0, 0.0, 0.0, 0.0, 0.0005679322578152642, 0.0, 0.0, 0.0, 0.0, 0.0, 0.0, 0.0005679322578152642, 0.0, 0.0, 0.0, 0.0, 0.0, 0.0, 0.0005679322578152642]
twist: 
  twist: 
    linear: 
      x: 0.2565181851387024
      y: 0.1021767407655716
      z: -0.01119732204824686
    angular: 
      x: -0.008382359519600868
      y: 0.0322086326777935
      z: -0.015560700558125973
  covariance: [0.0003362388291000389, 0.0, 0.0, 0.0, 0.0, 0.0, 0.0, 0.0003362388291000389, 0.0, 0.0, 0.0, 0.0, 0.0, 0.0, 0.0003362388291000389, 0.0, 0.0, 0.0, 0.0, 0.0, 0.0, 0.0002839661289076321, 0.0, 0.0, 0.0, 0.0, 0.0, 0.0, 0.0002839661289076321, 0.0, 0.0, 0.0, 0.0, 0.0, 0.0, 0.0002839661289076321]
---
header: 
  seq: 268
  stamp: 
    secs: 1671057904
    nsecs: 860214949
  frame_id: "odom"
child_frame_id: "camera_link"
pose: 
  pose: 
    position: 
      x: -0.13702793419361115
      y: -0.10377080738544464
      z: -0.031108517199754715
    orientation: 
      x: -0.6722381703562462
      y: 0.7357331467903685
      z: -0.022691889652058456
      w: 0.07923166774748024
  covariance: [0.0005383552280883306, 0.0, 0.0, 0.0, 0.0, 0.0, 0.0, 0.0005383552280883306, 0.0, 0.0, 0.0, 0.0, 0.0, 0.0, 0.0005383552280883306, 0.0, 0.0, 0.0, 0.0, 0.0, 0.0, 0.0004799903411627748, 0.0, 0.0, 0.0, 0.0, 0.0, 0.0, 0.0004799903411627748, 0.0, 0.0, 0.0, 0.0, 0.0, 0.0, 0.0004799903411627748]
twist: 
  twist: 
    linear: 
      x: 0.16966785490512848
      y: -0.02346101589500904
      z: -0.019072115421295166
    angular: 
      x: 0.017769332975149155
      y: 0.013262788765132427
      z: 0.043803174048662186
  covariance: [0.0002691776140441653, 0.0, 0.0, 0.0, 0.0, 0.0, 0.0, 0.0002691776140441653, 0.0, 0.0, 0.0, 0.0, 0.0, 0.0, 0.0002691776140441653, 0.0, 0.0, 0.0, 0.0, 0.0, 0.0, 0.0002399951705813874, 0.0, 0.0, 0.0, 0.0, 0.0, 0.0, 0.0002399951705813874, 0.0, 0.0, 0.0, 0.0, 0.0, 0.0, 0.0002399951705813874]
---
header: 
  seq: 269
  stamp: 
    secs: 1671057904
    nsecs: 960262537
  frame_id: "odom"
child_frame_id: "camera_link"
pose: 
  pose: 
    position: 
      x: -0.13465291261672974
      y: -0.12296788394451141
      z: -0.031133314594626427
    orientation: 
      x: -0.6700149936093385
      y: 0.7377283077038655
      z: -0.023234227574770432
      w: 0.07935378390519632
  covariance: [0.0008069123283633963, 0.0, 0.0, 0.0, 0.0, 0.0, 0.0, 0.0008069123283633963, 0.0, 0.0, 0.0, 0.0, 0.0, 0.0, 0.0008069123283633963, 0.0, 0.0, 0.0, 0.0, 0.0, 0.0, 0.000503418120124843, 0.0, 0.0, 0.0, 0.0, 0.0, 0.0, 0.000503418120124843, 0.0, 0.0, 0.0, 0.0, 0.0, 0.0, 0.000503418120124843]
twist: 
  twist: 
    linear: 
      x: 0.18852835893630981
      y: -0.04162148758769035
      z: -0.010296694003045559
    angular: 
      x: 0.012262148782610893
      y: 0.009624446742236614
      z: 0.0587112195789814
  covariance: [0.00040345616418169814, 0.0, 0.0, 0.0, 0.0, 0.0, 0.0, 0.00040345616418169814, 0.0, 0.0, 0.0, 0.0, 0.0, 0.0, 0.00040345616418169814, 0.0, 0.0, 0.0, 0.0, 0.0, 0.0, 0.0002517090600624215, 0.0, 0.0, 0.0, 0.0, 0.0, 0.0, 0.0002517090600624215, 0.0, 0.0, 0.0, 0.0, 0.0, 0.0, 0.0002517090600624215]
---
header: 
  seq: 270
  stamp: 
    secs: 1671057905
    nsecs:  60313702
  frame_id: "odom"
child_frame_id: "camera_link"
pose: 
  pose: 
    position: 
      x: -0.13347332179546356
      y: -0.15058845281600952
      z: -0.036980289965867996
    orientation: 
      x: -0.6671101776833106
      y: 0.7401699753967866
      z: -0.02039230117898671
      w: 0.08183258767195263
  covariance: [0.0008397337681590581, 0.0, 0.0, 0.0, 0.0, 0.0, 0.0, 0.0008397337681590581, 0.0, 0.0, 0.0, 0.0, 0.0, 0.0, 0.0008397337681590581, 0.0, 0.0, 0.0, 0.0, 0.0, 0.0, 0.0006439746605535039, 0.0, 0.0, 0.0, 0.0, 0.0, 0.0, 0.0006439746605535039, 0.0, 0.0, 0.0, 0.0, 0.0, 0.0, 0.0006439746605535039]
twist: 
  twist: 
    linear: 
      x: 0.27789604663848877
      y: -0.03129862621426582
      z: 0.03949631005525589
    angular: 
      x: -0.005518441554158926
      y: -0.06937403231859207
      z: 0.08121903985738754
  covariance: [0.00041986688407952906, 0.0, 0.0, 0.0, 0.0, 0.0, 0.0, 0.00041986688407952906, 0.0, 0.0, 0.0, 0.0, 0.0, 0.0, 0.00041986688407952906, 0.0, 0.0, 0.0, 0.0, 0.0, 0.0, 0.00032198733027675194, 0.0, 0.0, 0.0, 0.0, 0.0, 0.0, 0.00032198733027675194, 0.0, 0.0, 0.0, 0.0, 0.0, 0.0, 0.00032198733027675194]
---
header: 
  seq: 271
  stamp: 
    secs: 1671057905
    nsecs: 160364151
  frame_id: "odom"
child_frame_id: "camera_link"
pose: 
  pose: 
    position: 
      x: -0.12362586706876755
      y: -0.16810762882232666
      z: -0.04360969364643097
    orientation: 
      x: -0.6642141378538751
      y: 0.7426998569839599
      z: -0.01931872918952263
      w: 0.08272416946419384
  covariance: [0.0007601613793009892, 0.0, 0.0, 0.0, 0.0, 0.0, 0.0, 0.0007601613793009892, 0.0, 0.0, 0.0, 0.0, 0.0, 0.0, 0.0007601613793009892, 0.0, 0.0, 0.0, 0.0, 0.0, 0.0, 0.0005878657220746391, 0.0, 0.0, 0.0, 0.0, 0.0, 0.0, 0.0005878657220746391, 0.0, 0.0, 0.0, 0.0, 0.0, 0.0, 0.0005878657220746391]
twist: 
  twist: 
    linear: 
      x: 0.17023037374019623
      y: -0.10673941671848297
      z: 0.06608684360980988
    angular: 
      x: -0.0003760051913559437
      y: -0.02218818850815296
      z: 0.07870573550462723
  covariance: [0.0003800806896504946, 0.0, 0.0, 0.0, 0.0, 0.0, 0.0, 0.0003800806896504946, 0.0, 0.0, 0.0, 0.0, 0.0, 0.0, 0.0003800806896504946, 0.0, 0.0, 0.0, 0.0, 0.0, 0.0, 0.0002939328610373196, 0.0, 0.0, 0.0, 0.0, 0.0, 0.0, 0.0002939328610373196, 0.0, 0.0, 0.0, 0.0, 0.0, 0.0, 0.0002939328610373196]
---
header: 
  seq: 272
  stamp: 
    secs: 1671057905
    nsecs: 260414362
  frame_id: "odom"
child_frame_id: "camera_link"
pose: 
  pose: 
    position: 
      x: -0.11961018294095993
      y: -0.19925735890865326
      z: -0.049076709896326065
    orientation: 
      x: -0.6635249282390361
      y: 0.743644496970736
      z: -0.023218446742880056
      w: 0.0786666095708399
  covariance: [0.0005851326876156964, 0.0, 0.0, 0.0, 0.0, 0.0, 0.0, 0.0005851326876156964, 0.0, 0.0, 0.0, 0.0, 0.0, 0.0, 0.0005851326876156964, 0.0, 0.0, 0.0, 0.0, 0.0, 0.0, 0.0005472732359077782, 0.0, 0.0, 0.0, 0.0, 0.0, 0.0, 0.0005472732359077782, 0.0, 0.0, 0.0, 0.0, 0.0, 0.0, 0.0005472732359077782]
twist: 
  twist: 
    linear: 
      x: 0.30931127071380615
      y: -0.06829208135604858
      z: 0.03453605994582176
    angular: 
      x: 0.0048819174990057945
      y: 0.11384471505880356
      z: 0.014785543084144592
  covariance: [0.0002925663438078482, 0.0, 0.0, 0.0, 0.0, 0.0, 0.0, 0.0002925663438078482, 0.0, 0.0, 0.0, 0.0, 0.0, 0.0, 0.0002925663438078482, 0.0, 0.0, 0.0, 0.0, 0.0, 0.0, 0.0002736366179538891, 0.0, 0.0, 0.0, 0.0, 0.0, 0.0, 0.0002736366179538891, 0.0, 0.0, 0.0, 0.0, 0.0, 0.0, 0.0002736366179538891]
---
header: 
  seq: 273
  stamp: 
    secs: 1671057905
    nsecs: 360463858
  frame_id: "odom"
child_frame_id: "camera_link"
pose: 
  pose: 
    position: 
      x: -0.11577890813350677
      y: -0.22896499931812286
      z: -0.0541534423828125
    orientation: 
      x: -0.6643147679187862
      y: 0.7430703507563521
      z: -0.025468068290142584
      w: 0.07670541342962581
  covariance: [0.0005902333931950853, 0.0, 0.0, 0.0, 0.0, 0.0, 0.0, 0.0005902333931950853, 0.0, 0.0, 0.0, 0.0, 0.0, 0.0, 0.0005902333931950853, 0.0, 0.0, 0.0, 0.0, 0.0, 0.0, 0.0005258030858938584, 0.0, 0.0, 0.0, 0.0, 0.0, 0.0, 0.0005258030858938584, 0.0, 0.0, 0.0, 0.0, 0.0, 0.0, 0.0005258030858938584]
twist: 
  twist: 
    linear: 
      x: 0.29438289999961853
      y: -0.06575481593608856
      z: 0.03497566282749176
    angular: 
      x: 0.006384328007698059
      y: 0.05773131176829338
      z: -0.0237859059125185
  covariance: [0.00029511669659754267, 0.0, 0.0, 0.0, 0.0, 0.0, 0.0, 0.00029511669659754267, 0.0, 0.0, 0.0, 0.0, 0.0, 0.0, 0.00029511669659754267, 0.0, 0.0, 0.0, 0.0, 0.0, 0.0, 0.0002629015429469292, 0.0, 0.0, 0.0, 0.0, 0.0, 0.0, 0.0002629015429469292, 0.0, 0.0, 0.0, 0.0, 0.0, 0.0, 0.0002629015429469292]
---
header: 
  seq: 274
  stamp: 
    secs: 1671057905
    nsecs: 460512877
  frame_id: "odom"
child_frame_id: "camera_link"
pose: 
  pose: 
    position: 
      x: -0.11012006551027298
      y: -0.25930070877075195
      z: -0.06298314034938812
    orientation: 
      x: -0.6632621794425513
      y: 0.7439565346481618
      z: -0.024122111133918853
      w: 0.07765358735987736
  covariance: [0.0009059123331494631, 0.0, 0.0, 0.0, 0.0, 0.0, 0.0, 0.0009059123331494631, 0.0, 0.0, 0.0, 0.0, 0.0, 0.0, 0.0009059123331494631, 0.0, 0.0, 0.0, 0.0, 0.0, 0.0, 0.0005472732359077782, 0.0, 0.0, 0.0, 0.0, 0.0, 0.0, 0.0005472732359077782, 0.0, 0.0, 0.0, 0.0, 0.0, 0.0, 0.0005472732359077782]
twist: 
  twist: 
    linear: 
      x: 0.30163300037384033
      y: -0.07847969979047775
      z: 0.07603751122951508
    angular: 
      x: -0.0062836650758981705
      y: -0.030054297298192978
      z: 0.029959959909319878
  covariance: [0.00045295616657473157, 0.0, 0.0, 0.0, 0.0, 0.0, 0.0, 0.00045295616657473157, 0.0, 0.0, 0.0, 0.0, 0.0, 0.0, 0.00045295616657473157, 0.0, 0.0, 0.0, 0.0, 0.0, 0.0, 0.0002736366179538891, 0.0, 0.0, 0.0, 0.0, 0.0, 0.0, 0.0002736366179538891, 0.0, 0.0, 0.0, 0.0, 0.0, 0.0, 0.0002736366179538891]
---
header: 
  seq: 275
  stamp: 
    secs: 1671057905
    nsecs: 560561180
  frame_id: "odom"
child_frame_id: "camera_link"
pose: 
  pose: 
    position: 
      x: -0.10778342187404633
      y: -0.2912617325782776
      z: -0.07250578701496124
    orientation: 
      x: -0.6617423059815337
      y: 0.7451529209756106
      z: -0.023564693283662917
      w: 0.0793029007426857
  covariance: [0.0006289023352973164, 0.0, 0.0, 0.0, 0.0, 0.0, 0.0, 0.0006289023352973164, 0.0, 0.0, 0.0, 0.0, 0.0, 0.0, 0.0006289023352973164, 0.0, 0.0, 0.0, 0.0, 0.0, 0.0, 0.0006071451250556858, 0.0, 0.0, 0.0, 0.0, 0.0, 0.0, 0.0006071451250556858, 0.0, 0.0, 0.0, 0.0, 0.0, 0.0, 0.0006071451250556858]
twist: 
  twist: 
    linear: 
      x: 0.32188722491264343
      y: -0.04775668680667877
      z: 0.07592648267745972
    angular: 
      x: 0.01530157495290041
      y: -0.029359854757785797
      z: 0.04010351374745369
  covariance: [0.0003144511676486582, 0.0, 0.0, 0.0, 0.0, 0.0, 0.0, 0.0003144511676486582, 0.0, 0.0, 0.0, 0.0, 0.0, 0.0, 0.0003144511676486582, 0.0, 0.0, 0.0, 0.0, 0.0, 0.0, 0.0003035725625278429, 0.0, 0.0, 0.0, 0.0, 0.0, 0.0, 0.0003035725625278429, 0.0, 0.0, 0.0, 0.0, 0.0, 0.0, 0.0003035725625278429]
---
header: 
  seq: 276
  stamp: 
    secs: 1671057905
    nsecs: 627259731
  frame_id: "odom"
child_frame_id: "camera_link"
pose: 
  pose: 
    position: 
      x: -0.09609115868806839
      y: -0.29257863759994507
      z: -0.07128527015447617
    orientation: 
      x: -0.6594214053774363
      y: 0.7469975286979849
      z: -0.023021256455500367
      w: 0.08141329130037821
  covariance: [0.000648719419639092, 0.0, 0.0, 0.0, 0.0, 0.0, 0.0, 0.000648719419639092, 0.0, 0.0, 0.0, 0.0, 0.0, 0.0, 0.000648719419639092, 0.0, 0.0, 0.0, 0.0, 0.0, 0.0, 0.0005878657220746391, 0.0, 0.0, 0.0, 0.0, 0.0, 0.0, 0.0005878657220746391, 0.0, 0.0, 0.0, 0.0, 0.0, 0.0, 0.0005878657220746391]
twist: 
  twist: 
    linear: 
      x: -0.001613024272955954
      y: -0.17721886932849884
      z: 0.006757722701877356
    angular: 
      x: 0.03379107639193535
      y: -0.052014533430337906
      z: 0.09118427336215973
  covariance: [0.000324359709819546, 0.0, 0.0, 0.0, 0.0, 0.0, 0.0, 0.000324359709819546, 0.0, 0.0, 0.0, 0.0, 0.0, 0.0, 0.000324359709819546, 0.0, 0.0, 0.0, 0.0, 0.0, 0.0, 0.0002939328610373196, 0.0, 0.0, 0.0, 0.0, 0.0, 0.0, 0.0002939328610373196, 0.0, 0.0, 0.0, 0.0, 0.0, 0.0, 0.0002939328610373196]
---
header: 
  seq: 277
  stamp: 
    secs: 1671057905
    nsecs: 727307081
  frame_id: "odom"
child_frame_id: "camera_link"
pose: 
  pose: 
    position: 
      x: -0.09139353036880493
      y: -0.3162004351615906
      z: -0.0748153030872345
    orientation: 
      x: -0.6585660739927354
      y: 0.7479621051699392
      z: -0.023680684669689738
      w: 0.07926310988803337
  covariance: [0.0006322370242467151, 0.0, 0.0, 0.0, 0.0, 0.0, 0.0, 0.0006322370242467151, 0.0, 0.0, 0.0, 0.0, 0.0, 0.0, 0.0006322370242467151, 0.0, 0.0, 0.0, 0.0, 0.0, 0.0, 0.0005679322578152642, 0.0, 0.0, 0.0, 0.0, 0.0, 0.0, 0.0005679322578152642, 0.0, 0.0, 0.0, 0.0, 0.0, 0.0, 0.0005679322578152642]
twist: 
  twist: 
    linear: 
      x: 0.2312137633562088
      y: -0.07160060107707977
      z: 0.024684639647603035
    angular: 
      x: -0.017498822882771492
      y: 0.04278511554002762
      z: 0.02338738553225994
  covariance: [0.00031611851212335755, 0.0, 0.0, 0.0, 0.0, 0.0, 0.0, 0.00031611851212335755, 0.0, 0.0, 0.0, 0.0, 0.0, 0.0, 0.00031611851212335755, 0.0, 0.0, 0.0, 0.0, 0.0, 0.0, 0.0002839661289076321, 0.0, 0.0, 0.0, 0.0, 0.0, 0.0, 0.0002839661289076321, 0.0, 0.0, 0.0, 0.0, 0.0, 0.0, 0.0002839661289076321]
---
header: 
  seq: 278
  stamp: 
    secs: 1671057905
    nsecs: 794005156
  frame_id: "odom"
child_frame_id: "camera_link"
pose: 
  pose: 
    position: 
      x: -0.0868416354060173
      y: -0.33243367075920105
      z: -0.07678981125354767
    orientation: 
      x: -0.6579994412387282
      y: 0.7485486737661715
      z: -0.022695804075574942
      w: 0.07871797005633673
  covariance: [0.00016675351146259348, 0.0, 0.0, 0.0, 0.0, 0.0, 0.0, 0.00016675351146259348, 0.0, 0.0, 0.0, 0.0, 0.0, 0.0, 0.00016675351146259348, 0.0, 0.0, 0.0, 0.0, 0.0, 0.0, 0.0002629015429469292, 0.0, 0.0, 0.0, 0.0, 0.0, 0.0, 0.0002629015429469292, 0.0, 0.0, 0.0, 0.0, 0.0, 0.0, 0.0002629015429469292]
twist: 
  twist: 
    linear: 
      x: 0.2350832223892212
      y: -0.094833604991436
      z: 0.022631652653217316
    angular: 
      x: -0.03192891925573349
      y: -0.005398126319050789
      z: 0.026250313967466354
  covariance: [8.337675573129674e-05, 0.0, 0.0, 0.0, 0.0, 0.0, 0.0, 8.337675573129674e-05, 0.0, 0.0, 0.0, 0.0, 0.0, 0.0, 8.337675573129674e-05, 0.0, 0.0, 0.0, 0.0, 0.0, 0.0, 0.0001314507714734646, 0.0, 0.0, 0.0, 0.0, 0.0, 0.0, 0.0001314507714734646, 0.0, 0.0, 0.0, 0.0, 0.0, 0.0, 0.0001314507714734646]
---
header: 
  seq: 279
  stamp: 
    secs: 1671057905
    nsecs: 894050837
  frame_id: "odom"
child_frame_id: "camera_link"
pose: 
  pose: 
    position: 
      x: -0.08082551509141922
      y: -0.3569014370441437
      z: -0.07991588860750198
    orientation: 
      x: -0.6573394455575914
      y: 0.7492630440646879
      z: -0.02147167245378691
      w: 0.0777734620226804
  covariance: [0.0002753432931087446, 0.0, 0.0, 0.0, 0.0, 0.0, 0.0, 0.0002753432931087446, 0.0, 0.0, 0.0, 0.0, 0.0, 0.0, 0.0002753432931087446, 0.0, 0.0, 0.0, 0.0, 0.0, 0.0, 0.0002629015429469292, 0.0, 0.0, 0.0, 0.0, 0.0, 0.0, 0.0002629015429469292, 0.0, 0.0, 0.0, 0.0, 0.0, 0.0, 0.0002629015429469292]
twist: 
  twist: 
    linear: 
      x: 0.23722511529922485
      y: -0.08726149797439575
      z: 0.022684330120682716
    angular: 
      x: -0.03002822771668434
      y: -0.0005135623505339026
      z: 0.020771311596035957
  covariance: [0.0001376716465543723, 0.0, 0.0, 0.0, 0.0, 0.0, 0.0, 0.0001376716465543723, 0.0, 0.0, 0.0, 0.0, 0.0, 0.0, 0.0001376716465543723, 0.0, 0.0, 0.0, 0.0, 0.0, 0.0, 0.0001314507714734646, 0.0, 0.0, 0.0, 0.0, 0.0, 0.0, 0.0001314507714734646, 0.0, 0.0, 0.0, 0.0, 0.0, 0.0, 0.0001314507714734646]
---
header: 
  seq: 280
  stamp: 
    secs: 1671057905
    nsecs: 994103909
  frame_id: "odom"
child_frame_id: "camera_link"
pose: 
  pose: 
    position: 
      x: -0.07315326482057571
      y: -0.37877047061920166
      z: -0.08137153089046478
    orientation: 
      x: -0.6567918600714914
      y: 0.7498052211092613
      z: -0.020491579447095672
      w: 0.07743822126628301
  covariance: [0.00029213314336258925, 0.0, 0.0, 0.0, 0.0, 0.0, 0.0, 0.00029213314336258925, 0.0, 0.0, 0.0, 0.0, 0.0, 0.0, 0.00029213314336258925, 0.0, 0.0, 0.0, 0.0, 0.0, 0.0, 0.000303572536938591, 0.0, 0.0, 0.0, 0.0, 0.0, 0.0, 0.000303572536938591, 0.0, 0.0, 0.0, 0.0, 0.0, 0.0, 0.000303572536938591]
twist: 
  twist: 
    linear: 
      x: 0.20783302187919617
      y: -0.10280588269233704
      z: 0.010144989006221294
    angular: 
      x: -0.018471084535121918
      y: -0.006763904821127653
      z: 0.016711588948965073
  covariance: [0.00014606657168129462, 0.0, 0.0, 0.0, 0.0, 0.0, 0.0, 0.00014606657168129462, 0.0, 0.0, 0.0, 0.0, 0.0, 0.0, 0.00014606657168129462, 0.0, 0.0, 0.0, 0.0, 0.0, 0.0, 0.0001517862684692955, 0.0, 0.0, 0.0, 0.0, 0.0, 0.0, 0.0001517862684692955, 0.0, 0.0, 0.0, 0.0, 0.0, 0.0, 0.0001517862684692955]
---
header: 
  seq: 281
  stamp: 
    secs: 1671057906
    nsecs:  94156504
  frame_id: "odom"
child_frame_id: "camera_link"
pose: 
  pose: 
    position: 
      x: -0.06465929746627808
      y: -0.401034414768219
      z: -0.08187593519687653
    orientation: 
      x: -0.6560737964322084
      y: 0.7507017604855225
      z: -0.020364967711300416
      w: 0.07482852750845696
  covariance: [0.0002751996094593779, 0.0, 0.0, 0.0, 0.0, 0.0, 0.0, 0.0002751996094593779, 0.0, 0.0, 0.0, 0.0, 0.0, 0.0, 0.0002751996094593779, 0.0, 0.0, 0.0, 0.0, 0.0, 0.0, 0.000303572536938591, 0.0, 0.0, 0.0, 0.0, 0.0, 0.0, 0.000303572536938591, 0.0, 0.0, 0.0, 0.0, 0.0, 0.0, 0.000303572536938591]
twist: 
  twist: 
    linear: 
      x: 0.20969180762767792
      y: -0.11303270608186722
      z: 0.0013231232296675444
    angular: 
      x: -0.03537360578775406
      y: 0.0391727052628994
      z: 0.02159091643989086
  covariance: [0.00013759980472968894, 0.0, 0.0, 0.0, 0.0, 0.0, 0.0, 0.00013759980472968894, 0.0, 0.0, 0.0, 0.0, 0.0, 0.0, 0.00013759980472968894, 0.0, 0.0, 0.0, 0.0, 0.0, 0.0, 0.0001517862684692955, 0.0, 0.0, 0.0, 0.0, 0.0, 0.0, 0.0001517862684692955, 0.0, 0.0, 0.0, 0.0, 0.0, 0.0, 0.0001517862684692955]
---
header: 
  seq: 282
  stamp: 
    secs: 1671057906
    nsecs: 160857916
  frame_id: "odom"
child_frame_id: "camera_link"
pose: 
  pose: 
    position: 
      x: -0.06941641122102737
      y: -0.4229717552661896
      z: -0.08449447900056839
    orientation: 
      x: -0.6561339428371953
      y: 0.7507590346755386
      z: -0.019417119926367587
      w: 0.0739736193770099
  covariance: [0.00034430502190254634, 0.0, 0.0, 0.0, 0.0, 0.0, 0.0, 0.00034430502190254634, 0.0, 0.0, 0.0, 0.0, 0.0, 0.0, 0.00034430502190254634, 0.0, 0.0, 0.0, 0.0, 0.0, 0.0, 0.00037179893299005935, 0.0, 0.0, 0.0, 0.0, 0.0, 0.0, 0.00037179893299005935, 0.0, 0.0, 0.0, 0.0, 0.0, 0.0, 0.00037179893299005935]
twist: 
  twist: 
    linear: 
      x: 0.3374539017677307
      y: 0.029602613300085068
      z: 0.006630931980907917
    angular: 
      x: -0.0383230559527874
      y: 0.0006908397772349417
      z: 0.001375632593408227
  covariance: [0.00017215251095127317, 0.0, 0.0, 0.0, 0.0, 0.0, 0.0, 0.00017215251095127317, 0.0, 0.0, 0.0, 0.0, 0.0, 0.0, 0.00017215251095127317, 0.0, 0.0, 0.0, 0.0, 0.0, 0.0, 0.00018589946649502967, 0.0, 0.0, 0.0, 0.0, 0.0, 0.0, 0.00018589946649502967, 0.0, 0.0, 0.0, 0.0, 0.0, 0.0, 0.00018589946649502967]
---
header: 
  seq: 283
  stamp: 
    secs: 1671057906
    nsecs: 294259787
  frame_id: "odom"
child_frame_id: "camera_link"
pose: 
  pose: 
    position: 
      x: -0.058697570115327835
      y: -0.4391677975654602
      z: -0.08253516256809235
    orientation: 
      x: -0.6529175062265836
      y: 0.7534407531843417
      z: -0.02160825918812221
      w: 0.07455765982600619
  covariance: [0.0002911333201127127, 0.0, 0.0, 0.0, 0.0, 0.0, 0.0, 0.0002911333201127127, 0.0, 0.0, 0.0, 0.0, 0.0, 0.0, 0.0002911333201127127, 0.0, 0.0, 0.0, 0.0, 0.0, 0.0, 0.00042931640625000006, 0.0, 0.0, 0.0, 0.0, 0.0, 0.0, 0.00042931640625000006, 0.0, 0.0, 0.0, 0.0, 0.0, 0.0, 0.00042931640625000006]
twist: 
  twist: 
    linear: 
      x: 0.10841503739356995
      y: -0.09756502509117126
      z: -0.011789261363446712
    angular: 
      x: 0.0332699678838253
      y: 0.01875719055533409
      z: 0.060365140438079834
  covariance: [0.00014556666005635636, 0.0, 0.0, 0.0, 0.0, 0.0, 0.0, 0.00014556666005635636, 0.0, 0.0, 0.0, 0.0, 0.0, 0.0, 0.00014556666005635636, 0.0, 0.0, 0.0, 0.0, 0.0, 0.0, 0.00021465820312500003, 0.0, 0.0, 0.0, 0.0, 0.0, 0.0, 0.00021465820312500003, 0.0, 0.0, 0.0, 0.0, 0.0, 0.0, 0.00021465820312500003]
---
header: 
  seq: 284
  stamp: 
    secs: 1671057906
    nsecs: 360960484
  frame_id: "odom"
child_frame_id: "camera_link"
pose: 
  pose: 
    position: 
      x: -0.0635412186384201
      y: -0.4558242857456207
      z: -0.08406610786914825
    orientation: 
      x: -0.6522473985613164
      y: 0.7540774195434301
      z: -0.022407353082769255
      w: 0.07374609774449696
  covariance: [0.0002917326203919947, 0.0, 0.0, 0.0, 0.0, 0.0, 0.0, 0.0002917326203919947, 0.0, 0.0, 0.0, 0.0, 0.0, 0.0, 0.0002917326203919947, 0.0, 0.0, 0.0, 0.0, 0.0, 0.0, 0.0005878657220746391, 0.0, 0.0, 0.0, 0.0, 0.0, 0.0, 0.0005878657220746391, 0.0, 0.0, 0.0, 0.0, 0.0, 0.0, 0.0005878657220746391]
twist: 
  twist: 
    linear: 
      x: 0.2583235502243042
      y: 0.03761943802237511
      z: -0.003713355166837573
    angular: 
      x: 0.003279973054304719
      y: 0.035833656787872314
      z: 0.025294557213783264
  covariance: [0.00014586631019599736, 0.0, 0.0, 0.0, 0.0, 0.0, 0.0, 0.00014586631019599736, 0.0, 0.0, 0.0, 0.0, 0.0, 0.0, 0.00014586631019599736, 0.0, 0.0, 0.0, 0.0, 0.0, 0.0, 0.0002939328610373196, 0.0, 0.0, 0.0, 0.0, 0.0, 0.0, 0.0002939328610373196, 0.0, 0.0, 0.0, 0.0, 0.0, 0.0, 0.0002939328610373196]
---
header: 
  seq: 285
  stamp: 
    secs: 1671057906
    nsecs: 461010933
  frame_id: "odom"
child_frame_id: "camera_link"
pose: 
  pose: 
    position: 
      x: -0.06013025343418121
      y: -0.46731212735176086
      z: -0.08349760621786118
    orientation: 
      x: -0.6499154741590586
      y: 0.7560896012614265
      z: -0.02462163557259507
      w: 0.0730216842771618
  covariance: [0.0002918420912115835, 0.0, 0.0, 0.0, 0.0, 0.0, 0.0, 0.0002918420912115835, 0.0, 0.0, 0.0, 0.0, 0.0, 0.0, 0.0002918420912115835, 0.0, 0.0, 0.0, 0.0, 0.0, 0.0, 0.000303572536938591, 0.0, 0.0, 0.0, 0.0, 0.0, 0.0, 0.000303572536938591, 0.0, 0.0, 0.0, 0.0, 0.0, 0.0, 0.000303572536938591]
twist: 
  twist: 
    linear: 
      x: 0.10814753919839859
      y: -0.05117220804095268
      z: -0.007992005906999111
    angular: 
      x: 0.02659599855542183
      y: 0.04372449591755867
      z: 0.05785643309354782
  covariance: [0.00014592104560579174, 0.0, 0.0, 0.0, 0.0, 0.0, 0.0, 0.00014592104560579174, 0.0, 0.0, 0.0, 0.0, 0.0, 0.0, 0.00014592104560579174, 0.0, 0.0, 0.0, 0.0, 0.0, 0.0, 0.0001517862684692955, 0.0, 0.0, 0.0, 0.0, 0.0, 0.0, 0.0001517862684692955, 0.0, 0.0, 0.0, 0.0, 0.0, 0.0, 0.0001517862684692955]
---
header: 
  seq: 286
  stamp: 
    secs: 1671057906
    nsecs: 561060905
  frame_id: "odom"
child_frame_id: "camera_link"
pose: 
  pose: 
    position: 
      x: -0.06712201982736588
      y: -0.4891607463359833
      z: -0.08758386969566345
    orientation: 
      x: -0.6490116498770615
      y: 0.756934016548389
      z: -0.02534238917242822
      w: 0.07205925496985749
  covariance: [0.0003181769115454518, 0.0, 0.0, 0.0, 0.0, 0.0, 0.0, 0.0003181769115454518, 0.0, 0.0, 0.0, 0.0, 0.0, 0.0, 0.0003181769115454518, 0.0, 0.0, 0.0, 0.0, 0.0, 0.0, 0.00040158873734646484, 0.0, 0.0, 0.0, 0.0, 0.0, 0.0, 0.00040158873734646484, 0.0, 0.0, 0.0, 0.0, 0.0, 0.0, 0.00040158873734646484]
twist: 
  twist: 
    linear: 
      x: 0.22870853543281555
      y: 0.04019421711564064
      z: 0.017807265743613243
    angular: 
      x: -0.0006767627201043069
      y: 0.025588449090719223
      z: 0.023103797808289528
  covariance: [0.0001590884557727259, 0.0, 0.0, 0.0, 0.0, 0.0, 0.0, 0.0001590884557727259, 0.0, 0.0, 0.0, 0.0, 0.0, 0.0, 0.0001590884557727259, 0.0, 0.0, 0.0, 0.0, 0.0, 0.0, 0.00020079436867323242, 0.0, 0.0, 0.0, 0.0, 0.0, 0.0, 0.00020079436867323242, 0.0, 0.0, 0.0, 0.0, 0.0, 0.0, 0.00020079436867323242]
---
header: 
  seq: 287
  stamp: 
    secs: 1671057906
    nsecs: 627760410
  frame_id: "odom"
child_frame_id: "camera_link"
pose: 
  pose: 
    position: 
      x: -0.06927017122507095
      y: -0.5024529695510864
      z: -0.08853771537542343
    orientation: 
      x: -0.6490250286211331
      y: 0.7569558200342114
      z: -0.02536489630289111
      w: 0.07170091195525784
  covariance: [0.00027967918712762185, 0.0, 0.0, 0.0, 0.0, 0.0, 0.0, 0.00027967918712762185, 0.0, 0.0, 0.0, 0.0, 0.0, 0.0, 0.00027967918712762185, 0.0, 0.0, 0.0, 0.0, 0.0, 0.0, 0.00033940442427294335, 0.0, 0.0, 0.0, 0.0, 0.0, 0.0, 0.00033940442427294335, 0.0, 0.0, 0.0, 0.0, 0.0, 0.0, 0.00033940442427294335]
twist: 
  twist: 
    linear: 
      x: 0.20235927402973175
      y: 0.0022669679019600153
      z: -0.001433493453077972
    angular: 
      x: -0.00650858785957098
      y: 0.008608011528849602
      z: -0.00020485505228862166
  covariance: [0.00013983959356381092, 0.0, 0.0, 0.0, 0.0, 0.0, 0.0, 0.00013983959356381092, 0.0, 0.0, 0.0, 0.0, 0.0, 0.0, 0.00013983959356381092, 0.0, 0.0, 0.0, 0.0, 0.0, 0.0, 0.00016970221213647167, 0.0, 0.0, 0.0, 0.0, 0.0, 0.0, 0.00016970221213647167, 0.0, 0.0, 0.0, 0.0, 0.0, 0.0, 0.00016970221213647167]
---
header: 
  seq: 288
  stamp: 
    secs: 1671057906
    nsecs: 727809668
  frame_id: "odom"
child_frame_id: "camera_link"
pose: 
  pose: 
    position: 
      x: -0.07183387875556946
      y: -0.5200549364089966
      z: -0.08935258537530899
    orientation: 
      x: -0.6498892670944815
      y: 0.756307857612904
      z: -0.02519816211932733
      w: 0.07076310941574747
  covariance: [0.00044447778210276746, 0.0, 0.0, 0.0, 0.0, 0.0, 0.0, 0.00044447778210276746, 0.0, 0.0, 0.0, 0.0, 0.0, 0.0, 0.00044447778210276746, 0.0, 0.0, 0.0, 0.0, 0.0, 0.0, 0.00037179893299005935, 0.0, 0.0, 0.0, 0.0, 0.0, 0.0, 0.00037179893299005935, 0.0, 0.0, 0.0, 0.0, 0.0, 0.0, 0.00037179893299005935]
twist: 
  twist: 
    linear: 
      x: 0.17789483070373535
      y: -0.0013335372786968946
      z: -0.005193179007619619
    angular: 
      x: -0.015611767768859863
      y: 0.010643421672284603
      z: -0.02172885648906231
  covariance: [0.00022223889105138373, 0.0, 0.0, 0.0, 0.0, 0.0, 0.0, 0.00022223889105138373, 0.0, 0.0, 0.0, 0.0, 0.0, 0.0, 0.00022223889105138373, 0.0, 0.0, 0.0, 0.0, 0.0, 0.0, 0.00018589946649502967, 0.0, 0.0, 0.0, 0.0, 0.0, 0.0, 0.00018589946649502967, 0.0, 0.0, 0.0, 0.0, 0.0, 0.0, 0.00018589946649502967]
---
header: 
  seq: 289
  stamp: 
    secs: 1671057906
    nsecs: 794508457
  frame_id: "odom"
child_frame_id: "camera_link"
pose: 
  pose: 
    position: 
      x: -0.0726921334862709
      y: -0.5348421335220337
      z: -0.09135160595178604
    orientation: 
      x: -0.6507462847931031
      y: 0.7557074766448103
      z: -0.0246203625917641
      w: 0.0694933113109232
  covariance: [0.00033099223919562067, 0.0, 0.0, 0.0, 0.0, 0.0, 0.0, 0.00033099223919562067, 0.0, 0.0, 0.0, 0.0, 0.0, 0.0, 0.00033099223919562067, 0.0, 0.0, 0.0, 0.0, 0.0, 0.0, 0.00040158873734646484, 0.0, 0.0, 0.0, 0.0, 0.0, 0.0, 0.00040158873734646484, 0.0, 0.0, 0.0, 0.0, 0.0, 0.0, 0.00040158873734646484]
twist: 
  twist: 
    linear: 
      x: 0.22282622754573822
      y: -0.017643656581640244
      z: 0.015892812982201576
    angular: 
      x: -0.039229247719049454
      y: 0.015574918128550053
      z: -0.03089126944541931
  covariance: [0.00016549611959781034, 0.0, 0.0, 0.0, 0.0, 0.0, 0.0, 0.00016549611959781034, 0.0, 0.0, 0.0, 0.0, 0.0, 0.0, 0.00016549611959781034, 0.0, 0.0, 0.0, 0.0, 0.0, 0.0, 0.00020079436867323242, 0.0, 0.0, 0.0, 0.0, 0.0, 0.0, 0.00020079436867323242, 0.0, 0.0, 0.0, 0.0, 0.0, 0.0, 0.00020079436867323242]
---
header: 
  seq: 290
  stamp: 
    secs: 1671057906
    nsecs: 894556046
  frame_id: "odom"
child_frame_id: "camera_link"
pose: 
  pose: 
    position: 
      x: -0.08239414542913437
      y: -0.5672140121459961
      z: -0.09838008880615234
    orientation: 
      x: -0.6537673044279803
      y: 0.7530194634631725
      z: -0.022400623171445217
      w: 0.07105076627411784
  covariance: [0.0007472284690383823, 0.0, 0.0, 0.0, 0.0, 0.0, 0.0, 0.0007472284690383823, 0.0, 0.0, 0.0, 0.0, 0.0, 0.0, 0.0007472284690383823, 0.0, 0.0, 0.0, 0.0, 0.0, 0.0, 0.000503418120124843, 0.0, 0.0, 0.0, 0.0, 0.0, 0.0, 0.000503418120124843, 0.0, 0.0, 0.0, 0.0, 0.0, 0.0, 0.000503418120124843]
twist: 
  twist: 
    linear: 
      x: 0.3383820354938507
      y: 0.05488261207938194
      z: 0.03897041827440262
    angular: 
      x: -0.01592572033405304
      y: -0.057687025517225266
      z: -0.07671036571264267
  covariance: [0.00037361423451919115, 0.0, 0.0, 0.0, 0.0, 0.0, 0.0, 0.00037361423451919115, 0.0, 0.0, 0.0, 0.0, 0.0, 0.0, 0.00037361423451919115, 0.0, 0.0, 0.0, 0.0, 0.0, 0.0, 0.0002517090600624215, 0.0, 0.0, 0.0, 0.0, 0.0, 0.0, 0.0002517090600624215, 0.0, 0.0, 0.0, 0.0, 0.0, 0.0, 0.0002517090600624215]
---
header: 
  seq: 291
  stamp: 
    secs: 1671057906
    nsecs: 994606733
  frame_id: "odom"
child_frame_id: "camera_link"
pose: 
  pose: 
    position: 
      x: -0.09021643549203873
      y: -0.5989357233047485
      z: -0.10511324554681778
    orientation: 
      x: -0.6561063715191826
      y: 0.750345334825686
      z: -0.02212133333111072
      w: 0.07756902970203852
  covariance: [0.0006052105776127429, 0.0, 0.0, 0.0, 0.0, 0.0, 0.0, 0.0006052105776127429, 0.0, 0.0, 0.0, 0.0, 0.0, 0.0, 0.0006052105776127429, 0.0, 0.0, 0.0, 0.0, 0.0, 0.0, 0.0004799903411627748, 0.0, 0.0, 0.0, 0.0, 0.0, 0.0, 0.0004799903411627748, 0.0, 0.0, 0.0, 0.0, 0.0, 0.0, 0.0004799903411627748]
twist: 
  twist: 
    linear: 
      x: 0.3289736807346344
      y: 0.03954162821173668
      z: 0.03713580593466759
    angular: 
      x: 0.0792161077260971
      y: -0.10634876042604446
      z: -0.06726402789354324
  covariance: [0.00030260528880637146, 0.0, 0.0, 0.0, 0.0, 0.0, 0.0, 0.00030260528880637146, 0.0, 0.0, 0.0, 0.0, 0.0, 0.0, 0.00030260528880637146, 0.0, 0.0, 0.0, 0.0, 0.0, 0.0, 0.0002399951705813874, 0.0, 0.0, 0.0, 0.0, 0.0, 0.0, 0.0002399951705813874, 0.0, 0.0, 0.0, 0.0, 0.0, 0.0, 0.0002399951705813874]
---
header: 
  seq: 292
  stamp: 
    secs: 1671057907
    nsecs:  94656467
  frame_id: "odom"
child_frame_id: "camera_link"
pose: 
  pose: 
    position: 
      x: -0.09109734743833542
      y: -0.6213155388832092
      z: -0.10806167125701904
    orientation: 
      x: -0.6555636230669877
      y: 0.750778752338164
      z: -0.022903891949803523
      w: 0.07773681806188082
  covariance: [0.0007933292975672523, 0.0, 0.0, 0.0, 0.0, 0.0, 0.0, 0.0007933292975672523, 0.0, 0.0, 0.0, 0.0, 0.0, 0.0, 0.0007933292975672523, 0.0, 0.0, 0.0, 0.0, 0.0, 0.0, 0.0005679322578152642, 0.0, 0.0, 0.0, 0.0, 0.0, 0.0, 0.0005679322578152642, 0.0, 0.0, 0.0, 0.0, 0.0, 0.0, 0.0005679322578152642]
twist: 
  twist: 
    linear: 
      x: 0.22470623254776
      y: -0.018267542123794556
      z: 0.012462981976568699
    angular: 
      x: 0.01459408737719059
      y: 0.00864974781870842
      z: 0.012692510150372982
  covariance: [0.00039666464878362613, 0.0, 0.0, 0.0, 0.0, 0.0, 0.0, 0.00039666464878362613, 0.0, 0.0, 0.0, 0.0, 0.0, 0.0, 0.00039666464878362613, 0.0, 0.0, 0.0, 0.0, 0.0, 0.0, 0.0002839661289076321, 0.0, 0.0, 0.0, 0.0, 0.0, 0.0, 0.0002839661289076321, 0.0, 0.0, 0.0, 0.0, 0.0, 0.0, 0.0002839661289076321]
---
header: 
  seq: 293
  stamp: 
    secs: 1671057907
    nsecs: 194705725
  frame_id: "odom"
child_frame_id: "camera_link"
pose: 
  pose: 
    position: 
      x: -0.1033560261130333
      y: -0.6511225700378418
      z: -0.11520522087812424
    orientation: 
      x: -0.6560014279754385
      y: 0.7509128999462561
      z: -0.019904503348921118
      w: 0.07345579578850585
  covariance: [0.0005534132745419629, 0.0, 0.0, 0.0, 0.0, 0.0, 0.0, 0.0005534132745419629, 0.0, 0.0, 0.0, 0.0, 0.0, 0.0, 0.0005534132745419629, 0.0, 0.0, 0.0, 0.0, 0.0, 0.0, 0.0005258030858938584, 0.0, 0.0, 0.0, 0.0, 0.0, 0.0, 0.0005258030858938584, 0.0, 0.0, 0.0, 0.0, 0.0, 0.0, 0.0005258030858938584]
twist: 
  twist: 
    linear: 
      x: 0.31624773144721985
      y: 0.08836992084980011
      z: 0.032361749559640884
    angular: 
      x: -0.10186237096786499
      y: 0.024940788745880127
      z: -0.0022382696624845266
  covariance: [0.00027670663727098147, 0.0, 0.0, 0.0, 0.0, 0.0, 0.0, 0.00027670663727098147, 0.0, 0.0, 0.0, 0.0, 0.0, 0.0, 0.00027670663727098147, 0.0, 0.0, 0.0, 0.0, 0.0, 0.0, 0.0002629015429469292, 0.0, 0.0, 0.0, 0.0, 0.0, 0.0, 0.0002629015429469292, 0.0, 0.0, 0.0, 0.0, 0.0, 0.0, 0.0002629015429469292]
---
header: 
  seq: 294
  stamp: 
    secs: 1671057907
    nsecs: 294754505
  frame_id: "odom"
child_frame_id: "camera_link"
pose: 
  pose: 
    position: 
      x: -0.11394163221120834
      y: -0.6763864755630493
      z: -0.12263208627700806
    orientation: 
      x: -0.6567378529620596
      y: 0.7504392662443519
      z: -0.0179514490765294
      w: 0.07220834883499067
  covariance: [0.0006062926447181964, 0.0, 0.0, 0.0, 0.0, 0.0, 0.0, 0.0006062926447181964, 0.0, 0.0, 0.0, 0.0, 0.0, 0.0, 0.0006062926447181964, 0.0, 0.0, 0.0, 0.0, 0.0, 0.0, 0.0006788088997243904, 0.0, 0.0, 0.0, 0.0, 0.0, 0.0, 0.0006788088997243904, 0.0, 0.0, 0.0, 0.0, 0.0, 0.0, 0.0006788088997243904]
twist: 
  twist: 
    linear: 
      x: 0.2693668305873871
      y: 0.07832074165344238
      z: 0.042149800807237625
    angular: 
      x: -0.04656277224421501
      y: -0.007909437641501427
      z: -0.014876177534461021
  covariance: [0.0003031463223590982, 0.0, 0.0, 0.0, 0.0, 0.0, 0.0, 0.0003031463223590982, 0.0, 0.0, 0.0, 0.0, 0.0, 0.0, 0.0003031463223590982, 0.0, 0.0, 0.0, 0.0, 0.0, 0.0, 0.0003394044498621952, 0.0, 0.0, 0.0, 0.0, 0.0, 0.0, 0.0003394044498621952, 0.0, 0.0, 0.0, 0.0, 0.0, 0.0, 0.0003394044498621952]
---
header: 
  seq: 295
  stamp: 
    secs: 1671057907
    nsecs: 394802570
  frame_id: "odom"
child_frame_id: "camera_link"
pose: 
  pose: 
    position: 
      x: -0.1178150400519371
      y: -0.7052162885665894
      z: -0.1287422925233841
    orientation: 
      x: -0.6589851655482568
      y: 0.7484829497150189
      z: -0.02000494349977449
      w: 0.07149564888027723
  covariance: [0.0007959975912189112, 0.0, 0.0, 0.0, 0.0, 0.0, 0.0, 0.0007959975912189112, 0.0, 0.0, 0.0, 0.0, 0.0, 0.0, 0.0007959975912189112, 0.0, 0.0, 0.0, 0.0, 0.0, 0.0, 0.0005472732359077782, 0.0, 0.0, 0.0, 0.0, 0.0, 0.0, 0.0005472732359077782, 0.0, 0.0, 0.0, 0.0, 0.0, 0.0, 0.0005472732359077782]
twist: 
  twist: 
    linear: 
      x: 0.2948756217956543
      y: 0.0060939183458685875
      z: 0.035721514374017715
    angular: 
      x: 0.01880045235157013
      y: 0.03407972306013107
      z: -0.06258276849985123
  covariance: [0.0003979987956094556, 0.0, 0.0, 0.0, 0.0, 0.0, 0.0, 0.0003979987956094556, 0.0, 0.0, 0.0, 0.0, 0.0, 0.0, 0.0003979987956094556, 0.0, 0.0, 0.0, 0.0, 0.0, 0.0, 0.0002736366179538891, 0.0, 0.0, 0.0, 0.0, 0.0, 0.0, 0.0002736366179538891, 0.0, 0.0, 0.0, 0.0, 0.0, 0.0, 0.0002736366179538891]
---
header: 
  seq: 296
  stamp: 
    secs: 1671057907
    nsecs: 461500883
  frame_id: "odom"
child_frame_id: "camera_link"
pose: 
  pose: 
    position: 
      x: -0.12222930788993835
      y: -0.7249608039855957
      z: -0.13273286819458008
    orientation: 
      x: -0.6609771304840032
      y: 0.7463609122681011
      z: -0.021452998233290742
      w: 0.0747956581778859
  covariance: [0.00021446949518693148, 0.0, 0.0, 0.0, 0.0, 0.0, 0.0, 0.00021446949518693148, 0.0, 0.0, 0.0, 0.0, 0.0, 0.0, 0.00021446949518693148, 0.0, 0.0, 0.0, 0.0, 0.0, 0.0, 0.0002629015429469292, 0.0, 0.0, 0.0, 0.0, 0.0, 0.0, 0.0002629015429469292, 0.0, 0.0, 0.0, 0.0, 0.0, 0.0, 0.0002629015429469292]
twist: 
  twist: 
    linear: 
      x: 0.30572235584259033
      y: 0.033843860030174255
      z: 0.03131300210952759
    angular: 
      x: 0.09486130625009537
      y: -0.05091782286763191
      z: -0.08792796730995178
  covariance: [0.00010723474759346574, 0.0, 0.0, 0.0, 0.0, 0.0, 0.0, 0.00010723474759346574, 0.0, 0.0, 0.0, 0.0, 0.0, 0.0, 0.00010723474759346574, 0.0, 0.0, 0.0, 0.0, 0.0, 0.0, 0.0001314507714734646, 0.0, 0.0, 0.0, 0.0, 0.0, 0.0, 0.0001314507714734646, 0.0, 0.0, 0.0, 0.0, 0.0, 0.0, 0.0001314507714734646]
---
header: 
  seq: 297
  stamp: 
    secs: 1671057907
    nsecs: 561547995
  frame_id: "odom"
child_frame_id: "camera_link"
pose: 
  pose: 
    position: 
      x: -0.12526555359363556
      y: -0.7503263354301453
      z: -0.14023791253566742
    orientation: 
      x: -0.6624252361843775
      y: 0.7447335902890726
      z: -0.024198295069597756
      w: 0.07732482445466184
  covariance: [0.00016178263295267244, 0.0, 0.0, 0.0, 0.0, 0.0, 0.0, 0.00016178263295267244, 0.0, 0.0, 0.0, 0.0, 0.0, 0.0, 0.00016178263295267244, 0.0, 0.0, 0.0, 0.0, 0.0, 0.0, 0.00040158873734646484, 0.0, 0.0, 0.0, 0.0, 0.0, 0.0, 0.00040158873734646484, 0.0, 0.0, 0.0, 0.0, 0.0, 0.0, 0.00040158873734646484]
twist: 
  twist: 
    linear: 
      x: 0.26070472598075867
      y: 0.0078976945951581
      z: 0.052908096462488174
    angular: 
      x: 0.0729220062494278
      y: -0.004347065929323435
      z: -0.04614439979195595
  covariance: [8.089131647633622e-05, 0.0, 0.0, 0.0, 0.0, 0.0, 0.0, 8.089131647633622e-05, 0.0, 0.0, 0.0, 0.0, 0.0, 0.0, 8.089131647633622e-05, 0.0, 0.0, 0.0, 0.0, 0.0, 0.0, 0.00020079436867323242, 0.0, 0.0, 0.0, 0.0, 0.0, 0.0, 0.00020079436867323242, 0.0, 0.0, 0.0, 0.0, 0.0, 0.0, 0.00020079436867323242]
---
header: 
  seq: 298
  stamp: 
    secs: 1671057907
    nsecs: 661594391
  frame_id: "odom"
child_frame_id: "camera_link"
pose: 
  pose: 
    position: 
      x: -0.13386978209018707
      y: -0.779602587223053
      z: -0.14491870999336243
    orientation: 
      x: -0.6630453257457456
      y: 0.7436190008815158
      z: -0.02573191707242601
      w: 0.08209473782449321
